{
  "type": "FeatureCollection",
  "features": [
    {
      "type": "Feature",
      "properties": {
        "﻿都道府県コード又は市区町村コード": "292010",
        "NO": "0000000001",
        "都道府県名": "奈良県",
        "市区町村名": "奈良市",
        "名称": "アルション_デリ・カフェ",
        "名称_カナ": "アルション_デリ・カフェ",
        "業種": "飲食店営業",
        "住所": "奈良県奈良市西大寺東町2-1-63",
        "方書": "サンワシティ1F",
        "電話番号": "0742-30-5210",
        "備考": ""
      },
      "geometry": {
        "type": "Point",
        "coordinates": [
          135.783704,
          34.694554
        ]
      }
    },
    {
      "type": "Feature",
      "properties": {
        "﻿都道府県コード又は市区町村コード": "292010",
        "NO": "0000000002",
        "都道府県名": "奈良県",
        "市区町村名": "奈良市",
        "名称": "田舎料理_草ノ戸",
        "名称_カナ": "イナカリョウリ_クサノエ",
        "業種": "飲食店営業",
        "住所": "奈良県奈良市六条町151",
        "方書": "",
        "電話番号": "0742-33-3017",
        "備考": ""
      },
      "geometry": {
        "type": "Point",
        "coordinates": [
          135.791143,
          34.670175
        ]
      }
    },
    {
      "type": "Feature",
      "properties": {
        "﻿都道府県コード又は市区町村コード": "292010",
        "NO": "0000000003",
        "都道府県名": "奈良県",
        "市区町村名": "奈良市",
        "名称": "イル・ベーネ",
        "名称_カナ": "イル・ベーネ",
        "業種": "飲食店営業",
        "住所": "奈良県奈良市法蓮佐保山3-2-16",
        "方書": "",
        "電話番号": "0742-27-8880",
        "備考": ""
      },
      "geometry": {
        "type": "Point",
        "coordinates": [
          135.828455,
          34.699995
        ]
      }
    },
    {
      "type": "Feature",
      "properties": {
        "﻿都道府県コード又は市区町村コード": "292010",
        "NO": "0000000004",
        "都道府県名": "奈良県",
        "市区町村名": "奈良市",
        "名称": "うどん_むぎの蔵",
        "名称_カナ": "ウドン_ムギノクラ",
        "業種": "飲食店営業",
        "住所": "奈良県奈良市東向中町11 ",
        "方書": "",
        "電話番号": "0742-27-6088",
        "備考": ""
      },
      "geometry": {
        "type": "Point",
        "coordinates": [
          135.828935,
          34.683456
        ]
      }
    },
    {
      "type": "Feature",
      "properties": {
        "﻿都道府県コード又は市区町村コード": "292010",
        "NO": "0000000005",
        "都道府県名": "奈良県",
        "市区町村名": "奈良市",
        "名称": "うどん屋晴れ",
        "名称_カナ": "ウドンヤハレ",
        "業種": "飲食店営業",
        "住所": "奈良県奈良市法蓮町632-3",
        "方書": "一條ビル1F",
        "電話番号": "080-4760-0111",
        "備考": ""
      },
      "geometry": {
        "type": "Point",
        "coordinates": [
          135.815451,
          34.691828
        ]
      }
    },
    {
      "type": "Feature",
      "properties": {
        "﻿都道府県コード又は市区町村コード": "292010",
        "NO": "0000000006",
        "都道府県名": "奈良県",
        "市区町村名": "奈良市",
        "名称": "オーガニックカフェ_ミルクティー",
        "名称_カナ": "オーガニックカフェ_ミルクティー",
        "業種": "飲食店営業",
        "住所": "奈良県奈良市鳥見町1-1-10-104",
        "方書": "",
        "電話番号": "0742-43-8008",
        "備考": ""
      },
      "geometry": {
        "type": "Point",
        "coordinates": [
          135.731314,
          34.691785
        ]
      }
    },
    {
      "type": "Feature",
      "properties": {
        "﻿都道府県コード又は市区町村コード": "292010",
        "NO": "0000000007",
        "都道府県名": "奈良県",
        "市区町村名": "奈良市",
        "名称": "かえる庵",
        "名称_カナ": "カエルアン",
        "業種": "飲食店営業",
        "住所": "奈良県奈良市下三条町24-1",
        "方書": "",
        "電話番号": "0742-24-8345",
        "備考": ""
      },
      "geometry": {
        "type": "Point",
        "coordinates": [
          135.823631,
          34.681698
        ]
      }
    },
    {
      "type": "Feature",
      "properties": {
        "﻿都道府県コード又は市区町村コード": "292010",
        "NO": "0000000008",
        "都道府県名": "奈良県",
        "市区町村名": "奈良市",
        "名称": "Café_de_Nature",
        "名称_カナ": "カフェ_ドゥ_ナチュレ",
        "業種": "飲食店営業",
        "住所": "奈良県奈良市登大路59",
        "方書": "",
        "電話番号": "0742-22-0896",
        "備考": ""
      },
      "geometry": {
        "type": "Point",
        "coordinates": [
          135.837061,
          34.684531
        ]
      }
    },
    {
      "type": "Feature",
      "properties": {
        "﻿都道府県コード又は市区町村コード": "292010",
        "NO": "0000000009",
        "都道府県名": "奈良県",
        "市区町村名": "奈良市",
        "名称": "Cafe48",
        "名称_カナ": "カフェ48",
        "業種": "飲食店営業",
        "住所": "奈良県奈良市北市町56-1",
        "方書": "",
        "電話番号": "0742-22-5776",
        "備考": ""
      },
      "geometry": {
        "type": "Point",
        "coordinates": [
          135.822088,
          34.688409
        ]
      }
    },
    {
      "type": "Feature",
      "properties": {
        "﻿都道府県コード又は市区町村コード": "292010",
        "NO": "0000000010",
        "都道府県名": "奈良県",
        "市区町村名": "奈良市",
        "名称": "café_WAKAKUSA",
        "名称_カナ": "カフェ_ワカクサ",
        "業種": "飲食店営業",
        "住所": "奈良県奈良市東向北町22",
        "方書": "",
        "電話番号": "0742-95-4554",
        "備考": ""
      },
      "geometry": {
        "type": "Point",
        "coordinates": [
          135.829067,
          34.685374
        ]
      }
    },
    {
      "type": "Feature",
      "properties": {
        "﻿都道府県コード又は市区町村コード": "292010",
        "NO": "0000000011",
        "都道府県名": "奈良県",
        "市区町村名": "奈良市",
        "名称": "カラオケ恵",
        "名称_カナ": "カラオケメグミ",
        "業種": "飲食店営業",
        "住所": "奈良県奈良市邑地町2304",
        "方書": "",
        "電話番号": "0742-94-0600",
        "備考": ""
      },
      "geometry": {
        "type": "Point",
        "coordinates": [
          135.980681,
          34.728348
        ]
      }
    },
    {
      "type": "Feature",
      "properties": {
        "﻿都道府県コード又は市区町村コード": "292010",
        "NO": "0000000012",
        "都道府県名": "奈良県",
        "市区町村名": "奈良市",
        "名称": "キャラメル",
        "名称_カナ": "キャラメル",
        "業種": "飲食店営業",
        "住所": "奈良県奈良市南市町14-5",
        "方書": "",
        "電話番号": "090-7344-3760",
        "備考": ""
      },
      "geometry": {
        "type": "Point",
        "coordinates": [
          135.829624,
          34.680474
        ]
      }
    },
    {
      "type": "Feature",
      "properties": {
        "﻿都道府県コード又は市区町村コード": "292010",
        "NO": "0000000013",
        "都道府県名": "奈良県",
        "市区町村名": "奈良市",
        "名称": "衣掛茶屋",
        "名称_カナ": "キヌガケチャヤ",
        "業種": "飲食店営業",
        "住所": "奈良県奈良市登大路町猿沢49",
        "方書": "",
        "電話番号": "0742-26-6057",
        "備考": ""
      },
      "geometry": {
        "type": "Point",
        "coordinates": [
          135.830851,
          34.681897
        ]
      }
    },
    {
      "type": "Feature",
      "properties": {
        "﻿都道府県コード又は市区町村コード": "292010",
        "NO": "0000000014",
        "都道府県名": "奈良県",
        "市区町村名": "奈良市",
        "名称": "餃子のざ",
        "名称_カナ": "ギョウザノザ",
        "業種": "飲食店営業",
        "住所": "奈良県奈良市杉ヶ町12-4",
        "方書": "第2西田ビル102号室",
        "電話番号": "0742-23-0018",
        "備考": ""
      },
      "geometry": {
        "type": "Point",
        "coordinates": [
          135.822008,
          34.678377
        ]
      }
    },
    {
      "type": "Feature",
      "properties": {
        "﻿都道府県コード又は市区町村コード": "292010",
        "NO": "0000000015",
        "都道府県名": "奈良県",
        "市区町村名": "奈良市",
        "名称": "古都屋",
        "名称_カナ": "コトヤ",
        "業種": "飲食店営業",
        "住所": "奈良県奈良市若草山麓町107",
        "方書": "",
        "電話番号": "0742-22-4337",
        "備考": ""
      },
      "geometry": {
        "type": "Point",
        "coordinates": [
          135.845816,
          34.685942
        ]
      }
    },
    {
      "type": "Feature",
      "properties": {
        "﻿都道府県コード又は市区町村コード": "292010",
        "NO": "0000000016",
        "都道府県名": "奈良県",
        "市区町村名": "奈良市",
        "名称": "ごはんcaféにこちゃん堂",
        "名称_カナ": "ゴハンカフェニコチャンドウ",
        "業種": "飲食店営業",
        "住所": "奈良県奈良市椿井町45",
        "方書": "",
        "電話番号": "0742-26-2614",
        "備考": ""
      },
      "geometry": {
        "type": "Point",
        "coordinates": [
          135.827836,
          34.680941
        ]
      }
    },
    {
      "type": "Feature",
      "properties": {
        "﻿都道府県コード又は市区町村コード": "292010",
        "NO": "0000000017",
        "都道府県名": "奈良県",
        "市区町村名": "奈良市",
        "名称": "ごはんや歩味",
        "名称_カナ": "ゴハンヤアユミ",
        "業種": "飲食店営業",
        "住所": "奈良県奈良市三条宮前町2-1-2",
        "方書": "",
        "電話番号": "0742-34-7878",
        "備考": ""
      },
      "geometry": {
        "type": "Point",
        "coordinates": [
          135.815298,
          34.681842
        ]
      }
    },
    {
      "type": "Feature",
      "properties": {
        "﻿都道府県コード又は市区町村コード": "292010",
        "NO": "0000000018",
        "都道府県名": "奈良県",
        "市区町村名": "奈良市",
        "名称": "食房エスト",
        "名称_カナ": "ショクフサエスト",
        "業種": "飲食店営業",
        "住所": "奈良県奈良市学園南1-1-15",
        "方書": "",
        "電話番号": "0742-41-2202",
        "備考": ""
      },
      "geometry": {
        "type": "Point",
        "coordinates": [
          135.751951,
          34.696453
        ]
      }
    },
    {
      "type": "Feature",
      "properties": {
        "﻿都道府県コード又は市区町村コード": "292010",
        "NO": "0000000019",
        "都道府県名": "奈良県",
        "市区町村名": "奈良市",
        "名称": "菅原の里_Café_Dinette ",
        "名称_カナ": "スガワラノサト_カフェ_ディネット",
        "業種": "飲食店営業",
        "住所": "奈良県奈良市菅原町195-1",
        "方書": "",
        "電話番号": "0742-41-4142",
        "備考": ""
      },
      "geometry": {
        "type": "Point",
        "coordinates": [
          135.781851,
          34.688653
        ]
      }
    },
    {
      "type": "Feature",
      "properties": {
        "﻿都道府県コード又は市区町村コード": "292010",
        "NO": "0000000020",
        "都道府県名": "奈良県",
        "市区町村名": "奈良市",
        "名称": "Slow_Food_Nino",
        "名称_カナ": "スロー_フード_ニーノ",
        "業種": "飲食店営業",
        "住所": "奈良県奈良市西御門町11-11",
        "方書": "プライムビル1F",
        "電話番号": "0742-31-3650",
        "備考": ""
      },
      "geometry": {
        "type": "Point",
        "coordinates": [
          135.827444,
          34.684572
        ]
      }
    },
    {
      "type": "Feature",
      "properties": {
        "﻿都道府県コード又は市区町村コード": "292010",
        "NO": "0000000021",
        "都道府県名": "奈良県",
        "市区町村名": "奈良市",
        "名称": "天極堂_奈良本店",
        "名称_カナ": "テンギョクドウ_ナラホンテン",
        "業種": "飲食店営業",
        "住所": "奈良県奈良市押上町1-6",
        "方書": "",
        "電話番号": "0742-27-5011",
        "備考": ""
      },
      "geometry": {
        "type": "Point",
        "coordinates": [
          135.834984,
          34.686887
        ]
      }
    },
    {
      "type": "Feature",
      "properties": {
        "﻿都道府県コード又は市区町村コード": "292010",
        "NO": "0000000022",
        "都道府県名": "奈良県",
        "市区町村名": "奈良市",
        "名称": "天極堂_JR奈良駅店",
        "名称_カナ": "テンギョクドウ_ジェーアールナラエキテン",
        "業種": "飲食店営業",
        "住所": "奈良県奈良市三条本町1-1",
        "方書": "",
        "電話番号": "0742-20-6300",
        "備考": ""
      },
      "geometry": {
        "type": "Point",
        "coordinates": [
          135.819258,
          34.681398
        ]
      }
    },
    {
      "type": "Feature",
      "properties": {
        "﻿都道府県コード又は市区町村コード": "292010",
        "NO": "0000000023",
        "都道府県名": "奈良県",
        "市区町村名": "奈良市",
        "名称": "ドッグカフェ_ポコアポコ",
        "名称_カナ": "ドッグカフェ_ポコアポコ",
        "業種": "飲食店営業",
        "住所": "奈良県奈良市鳥見町2-28-16",
        "方書": "",
        "電話番号": "0742-54-1348",
        "備考": ""
      },
      "geometry": {
        "type": "Point",
        "coordinates": [
          135.723814,
          34.68951
        ]
      }
    },
    {
      "type": "Feature",
      "properties": {
        "﻿都道府県コード又は市区町村コード": "292010",
        "NO": "0000000024",
        "都道府県名": "奈良県",
        "市区町村名": "奈良市",
        "名称": "ナチュラルポエム村_夢りんご",
        "名称_カナ": "ナチュラルポエムムラ_ユメリンゴ",
        "業種": "飲食店営業",
        "住所": "奈良県奈良市南京終町212-3",
        "方書": "",
        "電話番号": "0742-27-6538",
        "備考": ""
      },
      "geometry": {
        "type": "Point",
        "coordinates": [
          135.829183,
          34.670237
        ]
      }
    },
    {
      "type": "Feature",
      "properties": {
        "﻿都道府県コード又は市区町村コード": "292010",
        "NO": "0000000025",
        "都道府県名": "奈良県",
        "市区町村名": "奈良市",
        "名称": "奈良祥樂_学園前店",
        "名称_カナ": "ナラショウラク_ガクエンマエテン",
        "業種": "飲食店営業",
        "住所": "奈良県奈良市学園北2-1-5",
        "方書": "ローレルコート学園前レジデンス1F",
        "電話番号": "0742-51-5151",
        "備考": ""
      },
      "geometry": {
        "type": "Point",
        "coordinates": [
          135.751799,
          34.697581
        ]
      }
    },
    {
      "type": "Feature",
      "properties": {
        "﻿都道府県コード又は市区町村コード": "292010",
        "NO": "0000000026",
        "都道府県名": "奈良県",
        "市区町村名": "奈良市",
        "名称": "奈良大学_カフェ・ナラヤマ",
        "名称_カナ": "ナラダイガク_カフェ・ナラヤマ",
        "業種": "飲食店営業",
        "住所": "奈良県奈良市山陵町1500",
        "方書": "奈良大学講堂内",
        "電話番号": "0742-51-7199",
        "備考": ""
      },
      "geometry": {
        "type": "Point",
        "coordinates": [
          135.784519,
          34.714181
        ]
      }
    },
    {
      "type": "Feature",
      "properties": {
        "﻿都道府県コード又は市区町村コード": "292010",
        "NO": "0000000027",
        "都道府県名": "奈良県",
        "市区町村名": "奈良市",
        "名称": "奈良大学_学生食堂",
        "名称_カナ": "ナラダイガク_ガクセイショクドウ",
        "業種": "飲食店営業",
        "住所": "奈良県奈良市山陵町1500",
        "方書": "奈良大学福利厚生棟B1F",
        "電話番号": "0742-48-8923",
        "備考": ""
      },
      "geometry": {
        "type": "Point",
        "coordinates": [
          135.784519,
          34.714181
        ]
      }
    },
    {
      "type": "Feature",
      "properties": {
        "﻿都道府県コード又は市区町村コード": "292010",
        "NO": "0000000028",
        "都道府県名": "奈良県",
        "市区町村名": "奈良市",
        "名称": "奈良のうまいものプラザ",
        "名称_カナ": "ナラノウマイモノプラザ",
        "業種": "飲食店営業",
        "住所": "奈良県奈良市三条本町1-1",
        "方書": "JR奈良駅構内1F",
        "電話番号": "0742-26-0088",
        "備考": ""
      },
      "geometry": {
        "type": "Point",
        "coordinates": [
          135.819233,
          34.681307
        ]
      }
    },
    {
      "type": "Feature",
      "properties": {
        "﻿都道府県コード又は市区町村コード": "292010",
        "NO": "0000000029",
        "都道府県名": "奈良県",
        "市区町村名": "奈良市",
        "名称": "奈良町あしびの郷",
        "名称_カナ": "ナラマチアシビノサト",
        "業種": "飲食店営業",
        "住所": "奈良県奈良市脇戸町29",
        "方書": "",
        "電話番号": "0742-26-6662",
        "備考": ""
      },
      "geometry": {
        "type": "Point",
        "coordinates": [
          135.828641,
          34.677877
        ]
      }
    },
    {
      "type": "Feature",
      "properties": {
        "﻿都道府県コード又は市区町村コード": "292010",
        "NO": "0000000030",
        "都道府県名": "奈良県",
        "市区町村名": "奈良市",
        "名称": "二鶴",
        "名称_カナ": "ニカク",
        "業種": "飲食店営業",
        "住所": "奈良県奈良市椿井町51",
        "方書": "",
        "電話番号": "0742-22-5841",
        "備考": ""
      },
      "geometry": {
        "type": "Point",
        "coordinates": [
          135.827485,
          34.680925
        ]
      }
    },
    {
      "type": "Feature",
      "properties": {
        "﻿都道府県コード又は市区町村コード": "292010",
        "NO": "0000000031",
        "都道府県名": "奈良県",
        "市区町村名": "奈良市",
        "名称": "パティスリーKARAKU",
        "名称_カナ": "パティスリーカラク",
        "業種": "飲食店営業",
        "住所": "奈良県奈良市杉ヶ町73",
        "方書": "",
        "電話番号": "0742-22-0050",
        "備考": ""
      },
      "geometry": {
        "type": "Point",
        "coordinates": [
          135.823984,
          34.678367
        ]
      }
    },
    {
      "type": "Feature",
      "properties": {
        "﻿都道府県コード又は市区町村コード": "292010",
        "NO": "0000000032",
        "都道府県名": "奈良県",
        "市区町村名": "奈良市",
        "名称": "ヒサゴ屋食堂",
        "名称_カナ": "ヒサゴヤショクドウ",
        "業種": "飲食店営業",
        "住所": "奈良県奈良市鶴福院町32",
        "方書": "",
        "電話番号": "0742-22-3795",
        "備考": ""
      },
      "geometry": {
        "type": "Point",
        "coordinates": [
          135.832063,
          34.679173
        ]
      }
    },
    {
      "type": "Feature",
      "properties": {
        "﻿都道府県コード又は市区町村コード": "292010",
        "NO": "0000000033",
        "都道府県名": "奈良県",
        "市区町村名": "奈良市",
        "名称": "まちの環境ステーション",
        "名称_カナ": "マチノカンキョウステーション",
        "業種": "飲食店営業",
        "住所": "奈良県奈良市東木辻町34-2",
        "方書": "",
        "電話番号": "0742-27-0360",
        "備考": ""
      },
      "geometry": {
        "type": "Point",
        "coordinates": [
          135.82918,
          34.675027
        ]
      }
    },
    {
      "type": "Feature",
      "properties": {
        "﻿都道府県コード又は市区町村コード": "292010",
        "NO": "0000000034",
        "都道府県名": "奈良県",
        "市区町村名": "奈良市",
        "名称": "マブハイ・キッチン",
        "名称_カナ": "マブハイ・キッチン",
        "業種": "飲食店営業",
        "住所": "奈良県奈良市南市町18-6",
        "方書": "",
        "電話番号": "0742-26-7765",
        "備考": ""
      },
      "geometry": {
        "type": "Point",
        "coordinates": [
          135.829568,
          34.680195
        ]
      }
    },
    {
      "type": "Feature",
      "properties": {
        "﻿都道府県コード又は市区町村コード": "292010",
        "NO": "0000000035",
        "都道府県名": "奈良県",
        "市区町村名": "奈良市",
        "名称": "麺屋あまのじゃくJR奈良店",
        "名称_カナ": "メンヤアマノジャクジェーアールナラテン",
        "業種": "飲食店営業",
        "住所": "奈良県奈良市杉ヶ町35-1",
        "方書": "",
        "電話番号": "0742-27-3298",
        "備考": ""
      },
      "geometry": {
        "type": "Point",
        "coordinates": [
          135.820849,
          34.678628
        ]
      }
    },
    {
      "type": "Feature",
      "properties": {
        "﻿都道府県コード又は市区町村コード": "292010",
        "NO": "0000000036",
        "都道府県名": "奈良県",
        "市区町村名": "奈良市",
        "名称": "Runner's_BAR_CORRER",
        "名称_カナ": "ランナーズ_バル_コレール",
        "業種": "飲食店営業",
        "住所": "奈良県奈良市福智院町31-2",
        "方書": "",
        "電話番号": "0742-93-8484",
        "備考": ""
      },
      "geometry": {
        "type": "Point",
        "coordinates": [
          135.834993,
          34.677024
        ]
      }
    },
    {
      "type": "Feature",
      "properties": {
        "﻿都道府県コード又は市区町村コード": "292010",
        "NO": "0000000037",
        "都道府県名": "奈良県",
        "市区町村名": "奈良市",
        "名称": "若草カレー本舗",
        "名称_カナ": "ワカクサカレーホンポ",
        "業種": "飲食店営業",
        "住所": "奈良県奈良市餅飯殿町38-1",
        "方書": "",
        "電話番号": "0742-24-8022",
        "備考": ""
      },
      "geometry": {
        "type": "Point",
        "coordinates": [
          135.82892,
          34.680774
        ]
      }
    },
    {
      "type": "Feature",
      "properties": {
        "﻿都道府県コード又は市区町村コード": "292010",
        "NO": "0000000038",
        "都道府県名": "奈良県",
        "市区町村名": "奈良市",
        "名称": "和モダンキッチン_にこすたいる",
        "名称_カナ": "ワモダンキッチン_ニコスタイル",
        "業種": "飲食店営業",
        "住所": "奈良県奈良市高御門町13-1",
        "方書": "",
        "電話番号": "0742-31-1557",
        "備考": ""
      },
      "geometry": {
        "type": "Point",
        "coordinates": [
          135.829378,
          34.677049
        ]
      }
    },
    {
      "type": "Feature",
      "properties": {
        "﻿都道府県コード又は市区町村コード": "292010",
        "NO": "0000000039",
        "都道府県名": "奈良県",
        "市区町村名": "奈良市",
        "名称": "やよい軒_奈良駅店",
        "名称_カナ": "ヤヨイケン_ナラエキテン",
        "業種": "飲食店営業",
        "住所": "奈良県奈良市三条本町1-1",
        "方書": "",
        "電話番号": "0742-25-5733",
        "備考": ""
      },
      "geometry": {
        "type": "Point",
        "coordinates": [
          135.819094,
          34.681206
        ]
      }
    },
    {
      "type": "Feature",
      "properties": {
        "﻿都道府県コード又は市区町村コード": "292010",
        "NO": "0000000040",
        "都道府県名": "奈良県",
        "市区町村名": "奈良市",
        "名称": "やよい軒_奈良大安寺店",
        "名称_カナ": "ヤヨイケン_ナラダイアンジテン",
        "業種": "飲食店営業",
        "住所": "奈良県奈良市南京終町3-1530-1",
        "方書": "",
        "電話番号": "0742-50-5055",
        "備考": ""
      },
      "geometry": {
        "type": "Point",
        "coordinates": [
          135.81908,
          34.66686
        ]
      }
    },
    {
      "type": "Feature",
      "properties": {
        "﻿都道府県コード又は市区町村コード": "292010",
        "NO": "0000000041",
        "都道府県名": "奈良県",
        "市区町村名": "奈良市",
        "名称": "キャパトル_シルキア奈良店",
        "名称_カナ": "キャパトル_シルキアナラテン",
        "業種": "飲食店営業",
        "住所": "奈良県奈良市三条本町8-1",
        "方書": "",
        "電話番号": "0742-36-8383",
        "備考": ""
      },
      "geometry": {
        "type": "Point",
        "coordinates": [
          135.818629,
          34.681827
        ]
      }
    },
    {
      "type": "Feature",
      "properties": {
        "﻿都道府県コード又は市区町村コード": "292010",
        "NO": "0000000042",
        "都道府県名": "奈良県",
        "市区町村名": "奈良市",
        "名称": "今西本店",
        "名称_カナ": "イマニシホンテン",
        "業種": "食品販売店",
        "住所": "奈良県奈良市上三条町31",
        "方書": "",
        "電話番号": "0742-22-2415",
        "備考": ""
      },
      "geometry": {
        "type": "Point",
        "coordinates": [
          135.826686,
          34.682129
        ]
      }
    },
    {
      "type": "Feature",
      "properties": {
        "﻿都道府県コード又は市区町村コード": "292010",
        "NO": "0000000043",
        "都道府県名": "奈良県",
        "市区町村名": "奈良市",
        "名称": "西出奈良漬本舗",
        "名称_カナ": "ニシデナラヅケホンポ",
        "業種": "食品販売店",
        "住所": "奈良県奈良市三条町483",
        "方書": "",
        "電話番号": "0742-22-4281",
        "備考": ""
      },
      "geometry": {
        "type": "Point",
        "coordinates": [
          135.822173,
          34.682166
        ]
      }
    },
    {
      "type": "Feature",
      "properties": {
        "﻿都道府県コード又は市区町村コード": "292010",
        "NO": "0000000044",
        "都道府県名": "奈良県",
        "市区町村名": "奈良市",
        "名称": "まる京",
        "名称_カナ": "",
        "業種": "食品販売店",
        "住所": "奈良県奈良市恋の窪1-6-1-1",
        "方書": "",
        "電話番号": "0742-36-1302",
        "備考": ""
      },
      "geometry": {
        "type": "Point",
        "coordinates": [
          135.810915,
          34.677226
        ]
      }
    },
    {
      "type": "Feature",
      "properties": {
        "﻿都道府県コード又は市区町村コード": "292010",
        "NO": "0000000045",
        "都道府県名": "奈良県",
        "市区町村名": "奈良市",
        "名称": "やまと蜂蜜_本社店舗",
        "名称_カナ": "ヤマトハチミツ_ホンシャテンポ",
        "業種": "食品販売店",
        "住所": "奈良県奈良市田中町324",
        "方書": "",
        "電話番号": "0742-61-8868",
        "備考": ""
      },
      "geometry": {
        "type": "Point",
        "coordinates": [
          135.829207,
          34.639871
        ]
      }
    },
    {
      "type": "Feature",
      "properties": {
        "﻿都道府県コード又は市区町村コード": "292010",
        "NO": "0000000046",
        "都道府県名": "奈良県",
        "市区町村名": "奈良市",
        "名称": "cat_in_SASAOKA_HAIR_PRODUCE",
        "名称_カナ": "カット_イン_ササオカ_ヘアー_プロデュース",
        "業種": "理容店",
        "住所": "奈良県奈良市鳥見町1-9-26",
        "方書": "",
        "電話番号": "0742-41-1363",
        "備考": ""
      },
      "geometry": {
        "type": "Point",
        "coordinates": [
          135.730676,
          34.691266
        ]
      }
    },
    {
      "type": "Feature",
      "properties": {
        "﻿都道府県コード又は市区町村コード": "292010",
        "NO": "0000000047",
        "都道府県名": "奈良県",
        "市区町村名": "奈良市",
        "名称": "髪さろん_n床屋",
        "名称_カナ": "",
        "業種": "理容店",
        "住所": "奈良県奈良市東城戸町4-1",
        "方書": "",
        "電話番号": "0742-27-5812",
        "備考": ""
      },
      "geometry": {
        "type": "Point",
        "coordinates": [
          135.827764,
          34.679437
        ]
      }
    },
    {
      "type": "Feature",
      "properties": {
        "﻿都道府県コード又は市区町村コード": "292010",
        "NO": "0000000048",
        "都道府県名": "奈良県",
        "市区町村名": "奈良市",
        "名称": "タキヘアメイク",
        "名称_カナ": "タキヘアメイク",
        "業種": "理容店",
        "住所": "奈良県奈良市北之庄町8-3",
        "方書": "",
        "電話番号": "0742-62-0766",
        "備考": ""
      },
      "geometry": {
        "type": "Point",
        "coordinates": [
          135.819284,
          34.653449
        ]
      }
    },
    {
      "type": "Feature",
      "properties": {
        "﻿都道府県コード又は市区町村コード": "292010",
        "NO": "0000000049",
        "都道府県名": "奈良県",
        "市区町村名": "奈良市",
        "名称": "BARBER'S_J",
        "名称_カナ": "バーバーズジェー",
        "業種": "理容店",
        "住所": "奈良県奈良市三碓2-1-9-1",
        "方書": "",
        "電話番号": "0742-41-8845",
        "備考": ""
      },
      "geometry": {
        "type": "Point",
        "coordinates": [
          135.73654,
          34.691152
        ]
      }
    },
    {
      "type": "Feature",
      "properties": {
        "﻿都道府県コード又は市区町村コード": "292010",
        "NO": "0000000050",
        "都道府県名": "奈良県",
        "市区町村名": "奈良市",
        "名称": "ヘアーサロン_ダンディ",
        "名称_カナ": "ヘアーサロン_ダンディ",
        "業種": "理容店",
        "住所": "奈良県奈良市右京1-3-1-3-108",
        "方書": "",
        "電話番号": "0742-71-1024",
        "備考": ""
      },
      "geometry": {
        "type": "Point",
        "coordinates": [
          135.789417,
          34.720907
        ]
      }
    },
    {
      "type": "Feature",
      "properties": {
        "﻿都道府県コード又は市区町村コード": "292010",
        "NO": "0000000051",
        "都道府県名": "奈良県",
        "市区町村名": "奈良市",
        "名称": "ヘアサロン_いまくぼ",
        "名称_カナ": "ヘアサロン_いまくぼ",
        "業種": "理容店",
        "住所": "奈良県奈良市三条宮前町1-23",
        "方書": "",
        "電話番号": "0742-33-3023",
        "備考": ""
      },
      "geometry": {
        "type": "Point",
        "coordinates": [
          135.816508,
          34.681856
        ]
      }
    },
    {
      "type": "Feature",
      "properties": {
        "﻿都道府県コード又は市区町村コード": "292010",
        "NO": "0000000052",
        "都道府県名": "奈良県",
        "市区町村名": "奈良市",
        "名称": "ヘアーメイク_アバンス",
        "名称_カナ": "ヘアーメイク_アバンス",
        "業種": "理容店",
        "住所": "奈良県奈良市大宮町4-237-11",
        "方書": "パナハイツ大宮101",
        "電話番号": "0742-35-8287",
        "備考": ""
      },
      "geometry": {
        "type": "Point",
        "coordinates": [
          135.811418,
          34.68295
        ]
      }
    },
    {
      "type": "Feature",
      "properties": {
        "﻿都道府県コード又は市区町村コード": "292010",
        "NO": "0000000053",
        "都道府県名": "奈良県",
        "市区町村名": "奈良市",
        "名称": "AXE",
        "名称_カナ": "アックス",
        "業種": "美容店",
        "住所": "奈良県奈良市小西町37-1",
        "方書": "AXE_Unit_2F",
        "電話番号": "0742-20-5520",
        "備考": ""
      },
      "geometry": {
        "type": "Point",
        "coordinates": [
          135.82799,
          34.682793
        ]
      }
    },
    {
      "type": "Feature",
      "properties": {
        "﻿都道府県コード又は市区町村コード": "292010",
        "NO": "0000000054",
        "都道府県名": "奈良県",
        "市区町村名": "奈良市",
        "名称": "IVAn&LIZ",
        "名称_カナ": "イヴァンピークヘア",
        "業種": "美容店",
        "住所": "奈良県奈良市小西町19",
        "方書": "マリアテラスビル3F",
        "電話番号": "0742-20-5448",
        "備考": ""
      },
      "geometry": {
        "type": "Point",
        "coordinates": [
          135.828006,
          34.683647
        ]
      }
    },
    {
      "type": "Feature",
      "properties": {
        "﻿都道府県コード又は市区町村コード": "292010",
        "NO": "0000000055",
        "都道府県名": "奈良県",
        "市区町村名": "奈良市",
        "名称": "クジャク美容室",
        "名称_カナ": "クジャクビヨウシツ",
        "業種": "美容店",
        "住所": "奈良県奈良市紀寺町883-7",
        "方書": "",
        "電話番号": "0742-23-0829",
        "備考": ""
      },
      "geometry": {
        "type": "Point",
        "coordinates": [
          135.838291,
          34.675577
        ]
      }
    },
    {
      "type": "Feature",
      "properties": {
        "﻿都道府県コード又は市区町村コード": "292010",
        "NO": "0000000056",
        "都道府県名": "奈良県",
        "市区町村名": "奈良市",
        "名称": "サロン・ド・アンジュ",
        "名称_カナ": "サロン・ド・アンジュ",
        "業種": "美容店",
        "住所": "奈良県奈良市藤ノ木台4-2-5-3",
        "方書": "",
        "電話番号": "0742-47-5700",
        "備考": ""
      },
      "geometry": {
        "type": "Point",
        "coordinates": [
          135.757789,
          34.677657
        ]
      }
    },
    {
      "type": "Feature",
      "properties": {
        "﻿都道府県コード又は市区町村コード": "292010",
        "NO": "0000000057",
        "都道府県名": "奈良県",
        "市区町村名": "奈良市",
        "名称": "サロン・ド岸",
        "名称_カナ": "サロン・ド･キシ",
        "業種": "美容店",
        "住所": "奈良県奈良市東九条町714-7",
        "方書": "",
        "電話番号": "0742-62-5684",
        "備考": ""
      },
      "geometry": {
        "type": "Point",
        "coordinates": [
          135.817135,
          34.660563
        ]
      }
    },
    {
      "type": "Feature",
      "properties": {
        "﻿都道府県コード又は市区町村コード": "292010",
        "NO": "0000000058",
        "都道府県名": "奈良県",
        "市区町村名": "奈良市",
        "名称": "ソ・アール美容室",
        "名称_カナ": "ソ・アールビヨウシツ",
        "業種": "美容店",
        "住所": "奈良県奈良市法蓮町410-2",
        "方書": "2F",
        "電話番号": "0742-22-3888",
        "備考": ""
      },
      "geometry": {
        "type": "Point",
        "coordinates": [
          135.815685,
          34.691473
        ]
      }
    },
    {
      "type": "Feature",
      "properties": {
        "﻿都道府県コード又は市区町村コード": "292010",
        "NO": "0000000059",
        "都道府県名": "奈良県",
        "市区町村名": "奈良市",
        "名称": "つだ美容室",
        "名称_カナ": "ツダビヨウシツ",
        "業種": "美容店",
        "住所": "奈良県奈良市小西町1-2",
        "方書": "",
        "電話番号": "0742-22-0607",
        "備考": ""
      },
      "geometry": {
        "type": "Point",
        "coordinates": [
          135.827918,
          34.683069
        ]
      }
    },
    {
      "type": "Feature",
      "properties": {
        "﻿都道府県コード又は市区町村コード": "292010",
        "NO": "0000000060",
        "都道府県名": "奈良県",
        "市区町村名": "奈良市",
        "名称": "トミーズ美容室",
        "名称_カナ": "トミーズビヨウシツ",
        "業種": "美容店",
        "住所": "奈良県奈良市平松1-33-9",
        "方書": "",
        "電話番号": "0742-46-8812",
        "備考": ""
      },
      "geometry": {
        "type": "Point",
        "coordinates": [
          135.772779,
          34.680136
        ]
      }
    },
    {
      "type": "Feature",
      "properties": {
        "﻿都道府県コード又は市区町村コード": "292010",
        "NO": "0000000061",
        "都道府県名": "奈良県",
        "市区町村名": "奈良市",
        "名称": "美容室_TSUDA",
        "名称_カナ": "ビヨウシツ_ツダ",
        "業種": "美容店",
        "住所": "奈良県奈良市二条大路南1-3-1",
        "方書": "イトーヨーカドー奈良店5F",
        "電話番号": "0742-36-7072",
        "備考": ""
      },
      "geometry": {
        "type": "Point",
        "coordinates": [
          135.802137,
          34.68523
        ]
      }
    },
    {
      "type": "Feature",
      "properties": {
        "﻿都道府県コード又は市区町村コード": "292010",
        "NO": "0000000062",
        "都道府県名": "奈良県",
        "市区町村名": "奈良市",
        "名称": "美容室_PRINK_UP_つだ",
        "名称_カナ": "ビヨウシツ_プリンク_アップ_ツダ",
        "業種": "美容店",
        "住所": "奈良県奈良市学園北1-14-5",
        "方書": "モンテクール学園前1F",
        "電話番号": "0742-46-6783",
        "備考": ""
      },
      "geometry": {
        "type": "Point",
        "coordinates": [
          135.750321,
          34.699581
        ]
      }
    },
    {
      "type": "Feature",
      "properties": {
        "﻿都道府県コード又は市区町村コード": "292010",
        "NO": "0000000063",
        "都道府県名": "奈良県",
        "市区町村名": "奈良市",
        "名称": "美容室_Rea-Smile",
        "名称_カナ": "ビヨウシツ_リア_スマイル",
        "業種": "美容店",
        "住所": "奈良県奈良市西大寺新町1-2-17",
        "方書": "杜第2ビル1_B",
        "電話番号": "0742-34-8443",
        "備考": ""
      },
      "geometry": {
        "type": "Point",
        "coordinates": [
          135.78204,
          34.696769
        ]
      }
    },
    {
      "type": "Feature",
      "properties": {
        "﻿都道府県コード又は市区町村コード": "292010",
        "NO": "0000000064",
        "都道府県名": "奈良県",
        "市区町村名": "奈良市",
        "名称": "ビューティーサロン_ナウナウ",
        "名称_カナ": "ビューティーサロン_ナウナウ",
        "業種": "美容店",
        "住所": "奈良県奈良市学園北1-1-12",
        "方書": "和幸ビル3F",
        "電話番号": "0742-43-4113",
        "備考": ""
      },
      "geometry": {
        "type": "Point",
        "coordinates": [
          135.749792,
          34.697707
        ]
      }
    },
    {
      "type": "Feature",
      "properties": {
        "﻿都道府県コード又は市区町村コード": "292010",
        "NO": "0000000065",
        "都道府県名": "奈良県",
        "市区町村名": "奈良市",
        "名称": "ビューティースタジオ_ベル",
        "名称_カナ": "ビューティースタジオ_ベル",
        "業種": "美容店",
        "住所": "奈良県奈良市東向北町21-1",
        "方書": "松山ビル2F",
        "電話番号": "0742-22-3211",
        "備考": ""
      },
      "geometry": {
        "type": "Point",
        "coordinates": [
          135.828995,
          34.685443
        ]
      }
    },
    {
      "type": "Feature",
      "properties": {
        "﻿都道府県コード又は市区町村コード": "292010",
        "NO": "0000000066",
        "都道府県名": "奈良県",
        "市区町村名": "奈良市",
        "名称": "fashion_salon_MORE",
        "名称_カナ": "ファッション_サロン_モア",
        "業種": "美容店",
        "住所": "奈良県奈良市花芝町23",
        "方書": "",
        "電話番号": "0742-23-4110",
        "備考": ""
      },
      "geometry": {
        "type": "Point",
        "coordinates": [
          135.829019,
          34.686114
        ]
      }
    },
    {
      "type": "Feature",
      "properties": {
        "﻿都道府県コード又は市区町村コード": "292010",
        "NO": "0000000067",
        "都道府県名": "奈良県",
        "市区町村名": "奈良市",
        "名称": "HAIR_MAKE_WALK",
        "名称_カナ": "ヘアー_メイク_ウォーク",
        "業種": "美容店",
        "住所": "奈良県奈良市鍋屋町2-6",
        "方書": "ふくむらびるパート2",
        "電話番号": "0742-27-0016",
        "備考": ""
      },
      "geometry": {
        "type": "Point",
        "coordinates": [
          135.829237,
          34.687045
        ]
      }
    },
    {
      "type": "Feature",
      "properties": {
        "﻿都道府県コード又は市区町村コード": "292010",
        "NO": "0000000068",
        "都道府県名": "奈良県",
        "市区町村名": "奈良市",
        "名称": "HAIR_MAKE_CINDERELLA",
        "名称_カナ": "ヘアー_メイク_シンデレラ",
        "業種": "美容店",
        "住所": "奈良県奈良市東向北町5",
        "方書": "",
        "電話番号": "0742-26-2051",
        "備考": ""
      },
      "geometry": {
        "type": "Point",
        "coordinates": [
          135.828686,
          34.684802
        ]
      }
    },
    {
      "type": "Feature",
      "properties": {
        "﻿都道府県コード又は市区町村コード": "292010",
        "NO": "0000000069",
        "都道府県名": "奈良県",
        "市区町村名": "奈良市",
        "名称": "マディー_青山店",
        "名称_カナ": "マディー_アオヤマテン",
        "業種": "美容店",
        "住所": "奈良県奈良市青山4-3-2",
        "方書": "",
        "電話番号": "0742-24-3848",
        "備考": ""
      },
      "geometry": {
        "type": "Point",
        "coordinates": [
          135.837583,
          34.707095
        ]
      }
    },
    {
      "type": "Feature",
      "properties": {
        "﻿都道府県コード又は市区町村コード": "292010",
        "NO": "0000000070",
        "都道府県名": "奈良県",
        "市区町村名": "奈良市",
        "名称": "マディー_JR店",
        "名称_カナ": "マディー_ジェーアールテン",
        "業種": "美容店",
        "住所": "奈良県奈良市大宮町1-5-18",
        "方書": "",
        "電話番号": "0742-34-3777",
        "備考": ""
      },
      "geometry": {
        "type": "Point",
        "coordinates": [
          135.817756,
          34.683832
        ]
      }
    },
    {
      "type": "Feature",
      "properties": {
        "﻿都道府県コード又は市区町村コード": "292010",
        "NO": "0000000071",
        "都道府県名": "奈良県",
        "市区町村名": "奈良市",
        "名称": "美幸美容室",
        "名称_カナ": "ミユキビヨウシツ",
        "業種": "美容店",
        "住所": "奈良県奈良市平松5-5-13-1",
        "方書": "",
        "電話番号": "0742-49-3327",
        "備考": ""
      },
      "geometry": {
        "type": "Point",
        "coordinates": [
          135.77301,
          34.678297
        ]
      }
    },
    {
      "type": "Feature",
      "properties": {
        "﻿都道府県コード又は市区町村コード": "292010",
        "NO": "0000000072",
        "都道府県名": "奈良県",
        "市区町村名": "奈良市",
        "名称": "moothi",
        "名称_カナ": "モーティー",
        "業種": "美容店",
        "住所": "奈良県奈良市朱雀3-6-13",
        "方書": "",
        "電話番号": "0742-71-9701",
        "備考": ""
      },
      "geometry": {
        "type": "Point",
        "coordinates": [
          135.793946,
          34.721467
        ]
      }
    },
    {
      "type": "Feature",
      "properties": {
        "﻿都道府県コード又は市区町村コード": "292010",
        "NO": "0000000073",
        "都道府県名": "奈良県",
        "市区町村名": "奈良市",
        "名称": "LOVER'S",
        "名称_カナ": "ラバーズ",
        "業種": "美容店",
        "住所": "奈良県奈良市大安寺5-4-12-101",
        "方書": "",
        "電話番号": "0742-62-8802",
        "備考": ""
      },
      "geometry": {
        "type": "Point",
        "coordinates": [
          135.817449,
          34.670177
        ]
      }
    },
    {
      "type": "Feature",
      "properties": {
        "﻿都道府県コード又は市区町村コード": "292010",
        "NO": "0000000074",
        "都道府県名": "奈良県",
        "市区町村名": "奈良市",
        "名称": "大西湯",
        "名称_カナ": "オオニシユ",
        "業種": "公衆浴場",
        "住所": "奈良県奈良市中筋町18",
        "方書": "",
        "電話番号": "0742-22-4875",
        "備考": ""
      },
      "geometry": {
        "type": "Point",
        "coordinates": [
          135.828448,
          34.685128
        ]
      }
    },
    {
      "type": "Feature",
      "properties": {
        "﻿都道府県コード又は市区町村コード": "292010",
        "NO": "0000000075",
        "都道府県名": "奈良県",
        "市区町村名": "奈良市",
        "名称": "あじさい園",
        "名称_カナ": "アジサイエン",
        "業種": "福祉施設",
        "住所": "奈良県奈良市茗荷町808-1",
        "方書": "",
        "電話番号": "0742-81-0878",
        "備考": ""
      },
      "geometry": {
        "type": "Point",
        "coordinates": [
          135.902129,
          34.657003
        ]
      }
    },
    {
      "type": "Feature",
      "properties": {
        "﻿都道府県コード又は市区町村コード": "292010",
        "NO": "0000000076",
        "都道府県名": "奈良県",
        "市区町村名": "奈良市",
        "名称": "ならのは",
        "名称_カナ": "ナラノハ",
        "業種": "福祉施設",
        "住所": "奈良県奈良市神功4-25-9",
        "方書": "",
        "電話番号": "0742-70-3100",
        "備考": ""
      },
      "geometry": {
        "type": "Point",
        "coordinates": [
          135.778119,
          34.720976
        ]
      }
    },
    {
      "type": "Feature",
      "properties": {
        "﻿都道府県コード又は市区町村コード": "292010",
        "NO": "0000000077",
        "都道府県名": "奈良県",
        "市区町村名": "奈良市",
        "名称": "デイサービス・チルチル",
        "名称_カナ": "デイサービス・チルチル",
        "業種": "福祉施設",
        "住所": "奈良県奈良市大宮町2-3-4-103",
        "方書": "東急ドエル奈良パークビレッジ1F",
        "電話番号": "0742-35-7000",
        "備考": ""
      },
      "geometry": {
        "type": "Point",
        "coordinates": [
          135.81511,
          34.682122
        ]
      }
    },
    {
      "type": "Feature",
      "properties": {
        "﻿都道府県コード又は市区町村コード": "292010",
        "NO": "0000000078",
        "都道府県名": "奈良県",
        "市区町村名": "奈良市",
        "名称": "デイサービス・青い鳥",
        "名称_カナ": "デイサービル・アオイトリ",
        "業種": "福祉施設",
        "住所": "奈良県奈良市東九条町640-1",
        "方書": "",
        "電話番号": "0742-63-1837",
        "備考": ""
      },
      "geometry": {
        "type": "Point",
        "coordinates": [
          135.815367,
          34.658069
        ]
      }
    },
    {
      "type": "Feature",
      "properties": {
        "﻿都道府県コード又は市区町村コード": "292010",
        "NO": "0000000079",
        "都道府県名": "奈良県",
        "市区町村名": "奈良市",
        "名称": "ファミリーモア八重桜_押熊館",
        "名称_カナ": "ファミリーモアヤエザクラ_オシクマカン",
        "業種": "福祉施設",
        "住所": "奈良県奈良市押熊町560",
        "方書": "",
        "電話番号": "0742-40-3300",
        "備考": ""
      },
      "geometry": {
        "type": "Point",
        "coordinates": [
          135.772724,
          34.716359
        ]
      }
    },
    {
      "type": "Feature",
      "properties": {
        "﻿都道府県コード又は市区町村コード": "292010",
        "NO": "0000000080",
        "都道府県名": "奈良県",
        "市区町村名": "奈良市",
        "名称": "はなばたけ",
        "名称_カナ": "ハナバタケ",
        "業種": "福祉施設",
        "住所": "奈良県奈良市椿井町10",
        "方書": "",
        "電話番号": "0744-52-1001",
        "備考": ""
      },
      "geometry": {
        "type": "Point",
        "coordinates": [
          135.826772,
          34.680559
        ]
      }
    },
    {
      "type": "Feature",
      "properties": {
        "﻿都道府県コード又は市区町村コード": "292010",
        "NO": "0000000081",
        "都道府県名": "奈良県",
        "市区町村名": "奈良市",
        "名称": "チェリッシュ",
        "名称_カナ": "チェリッシュ",
        "業種": "福祉施設",
        "住所": "奈良県奈良市神殿町656-4",
        "方書": "",
        "電話番号": "0744-52-1001",
        "備考": ""
      },
      "geometry": {
        "type": "Point",
        "coordinates": [
          135.819357,
          34.657976
        ]
      }
    },
    {
      "type": "Feature",
      "properties": {
        "﻿都道府県コード又は市区町村コード": "292010",
        "NO": "0000000082",
        "都道府県名": "奈良県",
        "市区町村名": "奈良市",
        "名称": "野の花舎",
        "名称_カナ": "ノノハナシャ",
        "業種": "福祉施設",
        "住所": "奈良県奈良市餅飯殿町40",
        "方書": "もちいどの財団1F",
        "電話番号": "0744-52-1001",
        "備考": ""
      },
      "geometry": {
        "type": "Point",
        "coordinates": [
          135.828863,
          34.68059
        ]
      }
    },
    {
      "type": "Feature",
      "properties": {
        "﻿都道府県コード又は市区町村コード": "292010",
        "NO": "0000000083",
        "都道府県名": "奈良県",
        "市区町村名": "奈良市",
        "名称": "Doキャロット(びあのの)",
        "名称_カナ": "ドューキャロット(ビアノノ)",
        "業種": "福祉施設",
        "住所": "奈良県奈良市餅飯殿町40",
        "方書": "もちいどの財団1F",
        "電話番号": "0744-52-1001",
        "備考": ""
      },
      "geometry": {
        "type": "Point",
        "coordinates": [
          135.828863,
          34.68059
        ]
      }
    },
    {
      "type": "Feature",
      "properties": {
        "﻿都道府県コード又は市区町村コード": "292010",
        "NO": "0000000084",
        "都道府県名": "奈良県",
        "市区町村名": "奈良市",
        "名称": "工房_錬(れん)",
        "名称_カナ": "コウボウ_レン(レン)",
        "業種": "福祉施設",
        "住所": "奈良県奈良市餅飯殿町40",
        "方書": "もちいどの財団1F",
        "電話番号": "0744-52-1001",
        "備考": ""
      },
      "geometry": {
        "type": "Point",
        "coordinates": [
          135.828863,
          34.68059
        ]
      }
    },
    {
      "type": "Feature",
      "properties": {
        "﻿都道府県コード又は市区町村コード": "292010",
        "NO": "0000000085",
        "都道府県名": "奈良県",
        "市区町村名": "奈良市",
        "名称": "プチハウス",
        "名称_カナ": "プチハウス",
        "業種": "福祉施設",
        "住所": "奈良県奈良市神殿町656-4",
        "方書": "",
        "電話番号": "0744-52-1001",
        "備考": ""
      },
      "geometry": {
        "type": "Point",
        "coordinates": [
          135.819357,
          34.657976
        ]
      }
    },
    {
      "type": "Feature",
      "properties": {
        "﻿都道府県コード又は市区町村コード": "292010",
        "NO": "0000000086",
        "都道府県名": "奈良県",
        "市区町村名": "奈良市",
        "名称": "特別養護老人ホーム_平城園",
        "名称_カナ": "トクベツヨウゴロウジンホーム_ヘイジョウエン",
        "業種": "福祉施設",
        "住所": "奈良県奈良市秋篠町1567",
        "方書": "",
        "電話番号": "0742-45-9588",
        "備考": ""
      },
      "geometry": {
        "type": "Point",
        "coordinates": [
          135.778904,
          34.712144
        ]
      }
    },
    {
      "type": "Feature",
      "properties": {
        "﻿都道府県コード又は市区町村コード": "292010",
        "NO": "0000000087",
        "都道府県名": "奈良県",
        "市区町村名": "奈良市",
        "名称": "グループホームふれあい東九条",
        "名称_カナ": "グループホームフレアイトウクジョウ",
        "業種": "福祉施設",
        "住所": "奈良県奈良市東九条町886-1",
        "方書": "",
        "電話番号": "0742-50-0025",
        "備考": ""
      },
      "geometry": {
        "type": "Point",
        "coordinates": [
          135.81252,
          34.660752
        ]
      }
    },
    {
      "type": "Feature",
      "properties": {
        "﻿都道府県コード又は市区町村コード": "292010",
        "NO": "0000000088",
        "都道府県名": "奈良県",
        "市区町村名": "奈良市",
        "名称": "ホームケアー奈良",
        "名称_カナ": "ホームケアーナラ",
        "業種": "福祉施設",
        "住所": "奈良県奈良市川久保町6-1",
        "方書": "",
        "電話番号": "0742-23-0143",
        "備考": ""
      },
      "geometry": {
        "type": "Point",
        "coordinates": [
          135.833265,
          34.688713
        ]
      }
    },
    {
      "type": "Feature",
      "properties": {
        "﻿都道府県コード又は市区町村コード": "292010",
        "NO": "0000000089",
        "都道府県名": "奈良県",
        "市区町村名": "奈良市",
        "名称": "作遊所かかしの会",
        "名称_カナ": "サクユウショカカシノカイ",
        "業種": "福祉施設",
        "住所": "奈良県奈良市六条西3-3-21",
        "方書": "",
        "電話番号": "0742-43-9439",
        "備考": ""
      },
      "geometry": {
        "type": "Point",
        "coordinates": [
          135.770538,
          34.669789
        ]
      }
    },
    {
      "type": "Feature",
      "properties": {
        "﻿都道府県コード又は市区町村コード": "292010",
        "NO": "0000000090",
        "都道府県名": "奈良県",
        "市区町村名": "奈良市",
        "名称": "ヴィラ秋篠",
        "名称_カナ": "ヴィラアキシノ",
        "業種": "福祉施設",
        "住所": "奈良県奈良市秋篠町1567-1",
        "方書": "",
        "電話番号": "0742-53-7707",
        "備考": ""
      },
      "geometry": {
        "type": "Point",
        "coordinates": [
          135.780019,
          34.712174
        ]
      }
    },
    {
      "type": "Feature",
      "properties": {
        "﻿都道府県コード又は市区町村コード": "292010",
        "NO": "0000000091",
        "都道府県名": "奈良県",
        "市区町村名": "奈良市",
        "名称": "特別養護老人ホームならやま園",
        "名称_カナ": "トクベツヨウゴロージンホームナラヤマエン",
        "業種": "福祉施設",
        "住所": "奈良県奈良市山陵町1085",
        "方書": "",
        "電話番号": "0742-41-8088",
        "備考": ""
      },
      "geometry": {
        "type": "Point",
        "coordinates": [
          135.782097,
          34.711694
        ]
      }
    },
    {
      "type": "Feature",
      "properties": {
        "﻿都道府県コード又は市区町村コード": "292010",
        "NO": "0000000092",
        "都道府県名": "奈良県",
        "市区町村名": "奈良市",
        "名称": "ディアネットソフトウェア",
        "名称_カナ": "ディアネットソフトウェア",
        "業種": "事務所・会社",
        "住所": "奈良県奈良市南紀寺町2-340-5-203",
        "方書": "",
        "電話番号": "0742-23-3401",
        "備考": ""
      },
      "geometry": {
        "type": "Point",
        "coordinates": [
          135.836737,
          34.66898
        ]
      }
    },
    {
      "type": "Feature",
      "properties": {
        "﻿都道府県コード又は市区町村コード": "292010",
        "NO": "0000000093",
        "都道府県名": "奈良県",
        "市区町村名": "奈良市",
        "名称": "あーとさろん宮崎",
        "名称_カナ": "アートサロンミヤザキ",
        "業種": "社会教育施設・文化施設",
        "住所": "奈良県奈良市高畑町812",
        "方書": "",
        "電話番号": "0742-23-2588",
        "備考": ""
      },
      "geometry": {
        "type": "Point",
        "coordinates": [
          135.839452,
          34.676611
        ]
      }
    },
    {
      "type": "Feature",
      "properties": {
        "﻿都道府県コード又は市区町村コード": "292010",
        "NO": "0000000094",
        "都道府県名": "奈良県",
        "市区町村名": "奈良市",
        "名称": "名勝依水園・寧楽美術館",
        "名称_カナ": "メイショウイスイエン_ネイラクビジュツカン",
        "業種": "社会教育施設・文化施設",
        "住所": "奈良県奈良市水門町74",
        "方書": "",
        "電話番号": "0742-25-0781",
        "備考": ""
      },
      "geometry": {
        "type": "Point",
        "coordinates": [
          135.837138,
          34.686021
        ]
      }
    },
    {
      "type": "Feature",
      "properties": {
        "﻿都道府県コード又は市区町村コード": "292010",
        "NO": "0000000095",
        "都道府県名": "奈良県",
        "市区町村名": "奈良市",
        "名称": "ソフィー施術院",
        "名称_カナ": "ソフィーセジュツイン",
        "業種": "サービス業",
        "住所": "奈良県奈良市平松1-33-9",
        "方書": "",
        "電話番号": "0742-41-6382",
        "備考": ""
      },
      "geometry": {
        "type": "Point",
        "coordinates": [
          135.772779,
          34.680136
        ]
      }
    },
    {
      "type": "Feature",
      "properties": {
        "﻿都道府県コード又は市区町村コード": "292010",
        "NO": "0000000096",
        "都道府県名": "奈良県",
        "市区町村名": "奈良市",
        "名称": "癒しの空間_和",
        "名称_カナ": "イヤシノクウカン_ナゴミ",
        "業種": "サービス業",
        "住所": "奈良県奈良市西登美ヶ丘6-19-10",
        "方書": "",
        "電話番号": "080-6234-1840",
        "備考": ""
      },
      "geometry": {
        "type": "Point",
        "coordinates": [
          135.740935,
          34.709726
        ]
      }
    },
    {
      "type": "Feature",
      "properties": {
        "﻿都道府県コード又は市区町村コード": "292010",
        "NO": "0000000097",
        "都道府県名": "奈良県",
        "市区町村名": "奈良市",
        "名称": "ピアッツァホテル奈良",
        "名称_カナ": "ピアッツァホテルナラ",
        "業種": "宿泊施設",
        "住所": "奈良県奈良市三条本町11-20",
        "方書": "",
        "電話番号": "0742-30-2200",
        "備考": ""
      },
      "geometry": {
        "type": "Point",
        "coordinates": [
          135.817792,
          34.680625
        ]
      }
    },
    {
      "type": "Feature",
      "properties": {
        "﻿都道府県コード又は市区町村コード": "292010",
        "NO": "0000000098",
        "都道府県名": "奈良県",
        "市区町村名": "奈良市",
        "名称": "ディアーゲストハウス",
        "名称_カナ": "ディアーゲストハウス",
        "業種": "宿泊施設",
        "住所": "奈良県奈良市椿井町36",
        "方書": "",
        "電話番号": "080-6108-8416",
        "備考": ""
      },
      "geometry": {
        "type": "Point",
        "coordinates": [
          135.828531,
          34.680932
        ]
      }
    }
  ]
}
